{
"type": "FeatureCollection",
"name": "CultureVenue",
"crs": { "type": "name", "properties": { "name": "urn:ogc:def:crs:OGC:1.3:CRS84" } },
"features": [
{ "type": "Feature", "properties": { "FID": 1, "NAME": "African Heritage Cultural Arts Center", "ADDRESS": "6161 NW 22 AVE", "CITY": "Miami", "ZIPCODE": 33142, "PHONE": "3056386771", "WEBURL": "http:\/\/www.ahcacmiami.org\/", "LAT": 25.8311, "LON": -80.23192, "POINT_X": 908806.43731074408, "POINT_Y": 545039.81252116 }, "geometry": { "type": "Point", "coordinates": [ -80.231924705999973, 25.83110010200005 ] } },
{ "type": "Feature", "properties": { "FID": 2, "NAME": "ArtSouth, A Not-for-Profit Corporation", "ADDRESS": "240 N Krome AVE", "CITY": "Homestead", "ZIPCODE": 33030, "PHONE": "3052479406", "WEBURL": "http:\/\/www.artsouthhomestead.org", "LAT": 25.47235, "LON": -80.47836, "POINT_X": 828262.74997324508, "POINT_Y": 414257.40610749304 }, "geometry": { "type": "Point", "coordinates": [ -80.478351624999959, 25.472355392000054 ] } },
{ "type": "Feature", "properties": { "FID": 3, "NAME": "Bakehouse Art Complex", "ADDRESS": "561 NW 32ND ST", "CITY": "Miami", "ZIPCODE": 33127, "PHONE": "3055762828", "WEBURL": "http:\/\/www.bacfl.org", "LAT": 25.80697, "LON": -80.20485, "POINT_X": 917764.12510399509, "POINT_Y": 536323.00023040909 }, "geometry": { "type": "Point", "coordinates": [ -80.204853673999935, 25.806972151000025 ] } },
{ "type": "Feature", "properties": { "FID": 4, "NAME": "Fairchild Tropical Botanic Garden", "ADDRESS": "10901 Old Cutler RD", "CITY": "Coral Gables", "ZIPCODE": 33156, "PHONE": "3056671651", "WEBURL": "http:\/\/www.fairchildgarden.org", "LAT": 25.67614, "LON": -80.27584, "POINT_X": 894668.37503574404, "POINT_Y": 488636.71863465803 }, "geometry": { "type": "Point", "coordinates": [ -80.275846261999959, 25.676142445000039 ] } },
{ "type": "Feature", "properties": { "FID": 5, "NAME": "Lou Rawls Performing Arts Center at Florida Memorial University ", "ADDRESS": "15800 NW 42ND AVE", "CITY": "Miami Gardens", "ZIPCODE": 33054, "PHONE": "3056263600", "WEBURL": "http:\/\/www.fmuniv.edu\/lou-rawls-center-for-the-performing-arts\/", "LAT": 25.91839, "LON": -80.27067, "POINT_X": 895887.24989457801, "POINT_Y": 576694.62519566005 }, "geometry": { "type": "Point", "coordinates": [ -80.27066455399995, 25.91839089900003 ] } },
{ "type": "Feature", "properties": { "FID": 6, "NAME": "Gablestage", "ADDRESS": "1200 Anastasia AVE", "CITY": "Coral Gables", "ZIPCODE": 33134, "PHONE": "3054451119", "WEBURL": "http:\/\/www.gablestage.org\/", "LAT": 25.74089, "LON": -80.27968, "POINT_X": 893277.00019383105, "POINT_Y": 512163.81265649205 }, "geometry": { "type": "Point", "coordinates": [ -80.279681017999962, 25.74089252300007 ] } },
{ "type": "Feature", "properties": { "FID": 7, "NAME": "Olympia Theater Performing Arts Center", "ADDRESS": "174 E Flagler St", "CITY": "Miami", "ZIPCODE": 33131, "PHONE": "3053742444", "WEBURL": "http:\/\/www.gusmancenter.org", "LAT": 25.77394, "LON": -80.19057, "POINT_X": 922539.62441124406, "POINT_Y": 524347.56289523805 }, "geometry": { "type": "Point", "coordinates": [ -80.190562985999975, 25.773945553000033 ] } },
{ "type": "Feature", "properties": { "FID": 8, "NAME": "Joseph Caleb Auditorium", "ADDRESS": "5400 NW 22ND AVE", "CITY": "Miami", "ZIPCODE": 33142, "PHONE": "3056362350", "WEBURL": "http:\/\/www.miamidadearts.org\/facilities\/joseph-caleb-auditorium", "LAT": 25.82472, "LON": -80.23326, "POINT_X": 908378.33777324506, "POINT_Y": 542720.94740823703 }, "geometry": { "type": "Point", "coordinates": [ -80.233267226999942, 25.824727345000042 ] } },
{ "type": "Feature", "properties": { "FID": 9, "NAME": "Zoo Miami", "ADDRESS": "12400 SW 152ND ST", "CITY": "Miami", "ZIPCODE": 33177, "PHONE": "7866193418", "WEBURL": "http:\/\/www.miamimetrozoo.com", "LAT": 25.62161, "LON": -80.39679, "POINT_X": 854922.50013132801, "POINT_Y": 468617.68715049303 }, "geometry": { "type": "Point", "coordinates": [ -80.396796790999986, 25.621612092000078 ] } },
{ "type": "Feature", "properties": { "FID": 10, "NAME": "Miami Children's Museum", "ADDRESS": "980 MacArthur CSWY", "CITY": "Miami", "ZIPCODE": 33132, "PHONE": "3053735437", "WEBURL": "http:\/\/www.miamichildrensmuseum.org", "LAT": 25.78471, "LON": -80.17653, "POINT_X": 927132.636878744, "POINT_Y": 528289.00612782699 }, "geometry": { "type": "Point", "coordinates": [ -80.176532259999988, 25.784710825000047 ] } },
{ "type": "Feature", "properties": { "FID": 11, "NAME": "Miami-Dade County Auditorium", "ADDRESS": "2901 W Flagler ST", "CITY": "Miami", "ZIPCODE": 33135, "PHONE": "3055475414", "WEBURL": "https:\/\/www.miamidadecountyauditorium.org\/", "LAT": 25.77299, "LON": -80.24121, "POINT_X": 905876.76928557805, "POINT_Y": 523901.53458782303 }, "geometry": { "type": "Point", "coordinates": [ -80.241201334999971, 25.772991252000054 ] } },
{ "type": "Feature", "properties": { "FID": 12, "NAME": "The PlayGround Theatre", "ADDRESS": "9806 NE 2nd AVE", "CITY": "Miami Shores", "ZIPCODE": 33138, "PHONE": "3057519550", "WEBURL": "http:\/\/www.theplaygroundtheatre.com", "LAT": 25.8656, "LON": -80.19391, "POINT_X": 921232.74972841109, "POINT_Y": 557657.12488490203 }, "geometry": { "type": "Point", "coordinates": [ -80.193913712999972, 25.865607649000026 ] } },
{ "type": "Feature", "properties": { "FID": 13, "NAME": "FIU - The Wolfsonian", "ADDRESS": "1001 Washington Ave", "CITY": "Miami", "ZIPCODE": 33139, "PHONE": "3055311001", "WEBURL": "http:\/\/www.wolfsonian.org", "LAT": 25.78088, "LON": -80.13253, "POINT_X": 941619.45829874708, "POINT_Y": 526989.56679757708 }, "geometry": { "type": "Point", "coordinates": [ -80.132536456999958, 25.780880048000029 ] } },
{ "type": "Feature", "properties": { "FID": 14, "NAME": "Miami Science Museum", "ADDRESS": "3280 S Miami AVE", "CITY": "Miami", "ZIPCODE": 33129, "PHONE": "3056464200", "WEBURL": "http:\/\/www.miamisci.org", "LAT": 25.74753, "LON": -80.21202, "POINT_X": 915537.65186666301, "POINT_Y": 514703.52444057202 }, "geometry": { "type": "Point", "coordinates": [ -80.212013748999937, 25.74752968100006 ] } },
{ "type": "Feature", "properties": { "FID": 15, "NAME": "HistoryMiami", "ADDRESS": "101 W Flagler ST", "CITY": "Miami", "ZIPCODE": 33130, "PHONE": "3053751492", "WEBURL": "http:\/\/www.historical-museum.org", "LAT": 25.77457, "LON": -80.19688, "POINT_X": 920458.85855966108, "POINT_Y": 524562.20485440502 }, "geometry": { "type": "Point", "coordinates": [ -80.196881434999966, 25.774571102000039 ] } },
{ "type": "Feature", "properties": { "FID": 16, "NAME": "Jewish Museum of Florida-FIU", "ADDRESS": "301 Washington AVE", "CITY": "Miami Beach", "ZIPCODE": 33139, "PHONE": "3056725044", "WEBURL": "http:\/\/www.jewishmuseum.com", "LAT": 25.77251, "LON": -80.13437, "POINT_X": 941036.0582188291, "POINT_Y": 523943.73529082502 }, "geometry": { "type": "Point", "coordinates": [ -80.134370009999941, 25.772511104000046 ] } },
{ "type": "Feature", "properties": { "FID": 17, "NAME": "Colony Theater - Miami New Drama", "ADDRESS": "1040 Lincoln RD", "CITY": "Miami Beach", "ZIPCODE": 33139, "PHONE": "3056741040", "WEBURL": "https:\/\/www.colonymb.org\/contact", "LAT": 25.79015, "LON": -80.1398, "POINT_X": 939210.3181039131, "POINT_Y": 530344.11651890702 }, "geometry": { "type": "Point", "coordinates": [ -80.139790390999963, 25.790152342000056 ] } },
{ "type": "Feature", "properties": { "FID": 18, "NAME": "O Cinema Miami Beach", "ADDRESS": "500 71st St", "CITY": "Miami Beach", "ZIPCODE": 33139, "PHONE": "7862071919", "WEBURL": "https:\/\/www.o-cinema.org\/venue\/o-cinema-miami-beach\/", "LAT": 25.85581, "LON": -80.12369, "POINT_X": 944349.54437399702, "POINT_Y": 554245.58052690199 }, "geometry": { "type": "Point", "coordinates": [ -80.123689009999964, 25.855814768000073 ] } },
{ "type": "Feature", "properties": { "FID": 19, "NAME": "Bass Museum of Art", "ADDRESS": "2121 Park AVE", "CITY": "Miami Beach", "ZIPCODE": 33139, "PHONE": "3056737530", "WEBURL": "https:\/\/thebass.org\/art\/", "LAT": 25.79768, "LON": -80.13015, "POINT_X": 942362.11724649312, "POINT_Y": 533101.722224153 }, "geometry": { "type": "Point", "coordinates": [ -80.130157106999945, 25.797681911000041 ] } },
{ "type": "Feature", "properties": { "FID": 20, "NAME": "Museum of Contemporary Art (MOCA)", "ADDRESS": "770 NE 125TH ST", "CITY": "North Miami", "ZIPCODE": 33131, "PHONE": "3058936211", "WEBURL": "http:\/\/www.mocanomi.org", "LAT": 25.88977, "LON": -80.18294, "POINT_X": 924786.99852541101, "POINT_Y": 566465.29362023599 }, "geometry": { "type": "Point", "coordinates": [ -80.182939083999941, 25.88977968100005 ] } },
{ "type": "Feature", "properties": { "FID": 21, "NAME": "The SoBe Arts - Little Stage Theatre", "ADDRESS": "2100 Washington Ave", "CITY": "Miami Beach", "ZIPCODE": 33054, "PHONE": "3056749220", "WEBURL": "http:\/\/www.sobearts.org", "LAT": 25.91018, "LON": -80.23458, "POINT_X": 907766.23696332809, "POINT_Y": 573780.15136582404 }, "geometry": { "type": "Point", "coordinates": [ -80.234577583999965, 25.910186383000053 ] } },
{ "type": "Feature", "properties": { "FID": 22, "NAME": "South Miami-Dade Cultural Arts Center", "ADDRESS": "10950 SW 211th ST", "CITY": "Cutler Bay", "ZIPCODE": 33189, "PHONE": "7865735316", "WEBURL": "http:\/\/www.smdcac.org", "LAT": 25.57045, "LON": -80.36925, "POINT_X": 864087.74558033107, "POINT_Y": 450068.37582399003 }, "geometry": { "type": "Point", "coordinates": [ -80.369250141999942, 25.570458918000043 ] } },
{ "type": "Feature", "properties": { "FID": 23, "NAME": "Alfred McCarthy Theater", "ADDRESS": "11011 SW 104th ST", "CITY": "Miami", "ZIPCODE": 33176, "PHONE": "3052372107", "WEBURL": "http:\/\/www.mdc.edu\/kendall\/academic-departments\/mtd\/theater.aspx", "LAT": 25.67285, "LON": -80.37683, "POINT_X": 861413.48124383006, "POINT_Y": 487273.48448448605 }, "geometry": { "type": "Point", "coordinates": [ -80.376831620999951, 25.672857879000048 ] } },
{ "type": "Feature", "properties": { "FID": 24, "NAME": "American Airlines Arena", "ADDRESS": "601 Biscayne BLVD", "CITY": "Miami", "ZIPCODE": 33132, "PHONE": "7867771000", "WEBURL": "http:\/\/www.aaarena.com", "LAT": 25.78123, "LON": -80.1878, "POINT_X": 923430.10228908109, "POINT_Y": 527003.31972282403 }, "geometry": { "type": "Point", "coordinates": [ -80.187807516999953, 25.781236930000034 ] } },
{ "type": "Feature", "properties": { "FID": 25, "NAME": "UM Watsco Center - Bank United Center", "ADDRESS": "1535 Levante AVE", "CITY": "Coral Gables", "ZIPCODE": 33146, "PHONE": "3052846376", "WEBURL": "http:\/\/watscocenter.com\/contact\/", "LAT": 25.71064, "LON": -80.28489, "POINT_X": 891621.87522324501, "POINT_Y": 501159.15618816001 }, "geometry": { "type": "Point", "coordinates": [ -80.284889953999937, 25.710640659000035 ] } },
{ "type": "Feature", "properties": { "FID": 26, "NAME": "Banyan Bowl at Pinecrest Gardens Amphitheater", "ADDRESS": "11000 Red Road", "CITY": "Pinecrest", "ZIPCODE": 33156, "PHONE": "3056696990", "WEBURL": "https:\/\/www.pinecrestgardens.org\/venue\/facility-rental\/banyan-bowl", "LAT": 25.66971, "LON": -80.28559, "POINT_X": 891471.18753249606, "POINT_Y": 486283.15608457505 }, "geometry": { "type": "Point", "coordinates": [ -80.285591798999974, 25.669714992000024 ] } },
{ "type": "Feature", "properties": { "FID": 27, "NAME": "Shepard & Ruth k. Broad Performing Arts Center", "ADDRESS": "11300 NE 2nd Ave", "CITY": "Miami Shores", "ZIPCODE": 33161, "PHONE": "3058993100", "WEBURL": "http:\/\/www.barry.edu\/about\/locations\/", "LAT": 25.87908, "LON": -80.19617, "POINT_X": 920463.81228991202, "POINT_Y": 562550.18760532106 }, "geometry": { "type": "Point", "coordinates": [ -80.196557258999974, 25.879800807000038 ] } },
{ "type": "Feature", "properties": { "FID": 28, "NAME": "UM Frost School of Music", "ADDRESS": "1314 Miller Dr", "CITY": "Coral Gables", "ZIPCODE": 33146, "PHONE": "3052842241", "WEBURL": "https:\/\/www.frost.miami.edu\/", "LAT": 25.71914, "LON": -80.27741, "POINT_X": 894067.99565907801, "POINT_Y": 504264.02563457203 }, "geometry": { "type": "Point", "coordinates": [ -80.279447793999964, 25.719639995000023 ] } },
{ "type": "Feature", "properties": { "FID": 29, "NAME": "Goodlet Theatre", "ADDRESS": "4200 W 8th AVE", "CITY": "Hialeah", "ZIPCODE": 33012, "PHONE": "3058245702", "WEBURL": "http:\/\/www.hialeahfl.gov\/index.php?option=com_content&view=article&id=842&Itemid=844&lang=en", "LAT": 25.86114, "LON": -80.29898, "POINT_X": 886690.45726458007, "POINT_Y": 555835.16461807501 }, "geometry": { "type": "Point", "coordinates": [ -80.29898269399996, 25.861140359000046 ] } },
{ "type": "Feature", "properties": { "FID": 30, "NAME": "Gwen Margolis Amphitheater", "ADDRESS": "16501 NE 16th Ave", "CITY": "North Miami Beach", "ZIPCODE": 33162, "PHONE": "3059482957", "WEBURL": "http:\/\/www.citynmb.com\/index.asp?Type=B_BASIC&SEC=%7B20BCEA39-C1FE-47AB-B844-DB62496A9A7E%7D", "LAT": 25.93201, "LON": -80.16121, "POINT_X": 931830.74985782802, "POINT_Y": 581861.50003249198 }, "geometry": { "type": "Point", "coordinates": [ -80.16735939299997, 25.928400877000058 ] } },
{ "type": "Feature", "properties": { "FID": 31, "NAME": "James L. Knight Center", "ADDRESS": "400 SE 2nd Ave", "CITY": "Miami", "ZIPCODE": 33131, "PHONE": "3053724633", "WEBURL": "http:\/\/www.jlkc.com", "LAT": 25.771, "LON": -80.19111, "POINT_X": 922368.93741666211, "POINT_Y": 523279.03091157204 }, "geometry": { "type": "Point", "coordinates": [ -80.191101550999974, 25.771008713000072 ] } },
{ "type": "Feature", "properties": { "FID": 32, "NAME": "Julius Littman Performing Arts Theater", "ADDRESS": "17011 NE 19th AVE", "CITY": "North Miami Beach", "ZIPCODE": 33162, "PHONE": "3059482957", "WEBURL": "http:\/\/www.littmantheater.com\/index.php", "LAT": 25.93237, "LON": -80.16165, "POINT_X": 931688.38892208005, "POINT_Y": 581991.94859048701 }, "geometry": { "type": "Point", "coordinates": [ -80.161646896999969, 25.932375418000049 ] } },
{ "type": "Feature", "properties": { "FID": 33, "NAME": "Hard Rock Stadium", "ADDRESS": "347 Don Shula Dr", "CITY": "Miami Gardens", "ZIPCODE": 33056, "PHONE": "3059438000", "WEBURL": "https:\/\/hardrockstadium.com\/", "LAT": 25.9584, "LON": -80.23854, "POINT_X": 906360.1249461621, "POINT_Y": 591298.18785198801 }, "geometry": { "type": "Point", "coordinates": [ -80.238545254999963, 25.958403645000033 ] } },
{ "type": "Feature", "properties": { "FID": 34, "NAME": "Little Haiti Cultural Center", "ADDRESS": "212 NE 59th TER", "CITY": "Miami", "ZIPCODE": 33137, "PHONE": "3059602969", "WEBURL": "http:\/\/www.littlehaiticulturalcenter.com\/", "LAT": 25.8304, "LON": -80.19131, "POINT_X": 922167.62482716108, "POINT_Y": 544867.87520098698 }, "geometry": { "type": "Point", "coordinates": [ -80.191310230999989, 25.830406676000052 ] } },
{ "type": "Feature", "properties": { "FID": 35, "NAME": "Manuel Artime Theatre", "ADDRESS": "900 SW 1st ST", "CITY": "Miami", "ZIPCODE": 33130, "PHONE": "3055755058", "WEBURL": "http:\/\/www.manuelartimetheater.com", "LAT": 25.77238, "LON": -80.20957, "POINT_X": 916288.25010299706, "POINT_Y": 523740.85052599001 }, "geometry": { "type": "Point", "coordinates": [ -80.209568931999968, 25.772380787000031 ] } },
{ "type": "Feature", "properties": { "FID": 36, "NAME": "Mary Ann Wolfe Auditorium", "ADDRESS": "3000 NE 151st ST", "CITY": "North Miami", "ZIPCODE": 33181, "PHONE": "3059195800", "WEBURL": "http:\/\/wuc.fiu.edu", "LAT": 25.91542, "LON": -80.13982, "POINT_X": 938902.4253469971, "POINT_Y": 575878.17768157308 }, "geometry": { "type": "Point", "coordinates": [ -80.139820106999935, 25.915427243000067 ] } },
{ "type": "Feature", "properties": { "FID": 37, "NAME": "Miami Beach Convention Center", "ADDRESS": "1900 Washington Avenue", "CITY": "Miami Beach", "ZIPCODE": 33139, "PHONE": "3056737311", "WEBURL": "http:\/\/www.miamibeachconvention.com", "LAT": 25.79523, "LON": -80.13452, "POINT_X": 940930.26643566007, "POINT_Y": 532202.79259157204 }, "geometry": { "type": "Point", "coordinates": [ -80.133353248999981, 25.795615492000024 ] } },
{ "type": "Feature", "properties": { "FID": 38, "NAME": "North Beach Bandshell", "ADDRESS": "7275 Collins Avenue", "CITY": "Miami Beach", "ZIPCODE": 33139, "PHONE": "3059932001", "WEBURL": "http:\/\/www.miamibeachfl.gov", "LAT": 25.85821, "LON": -80.12109, "POINT_X": 945200.9219363291, "POINT_Y": 555122.04334090708 }, "geometry": { "type": "Point", "coordinates": [ -80.121082531999946, 25.85821035500004 ] } },
{ "type": "Feature", "properties": { "FID": 39, "NAME": "O Cinema Wynwood", "ADDRESS": "90 NW 29th ST", "CITY": "Miami", "ZIPCODE": 33127, "PHONE": "3055719970", "WEBURL": "https:\/\/www.o-cinema.org\/venue\/o-cinema-wynwood\/", "LAT": 25.80365, "LON": -80.19688, "POINT_X": 920392.5748995801, "POINT_Y": 535131.83693032002 }, "geometry": { "type": "Point", "coordinates": [ -80.196886974999984, 25.80365114600005 ] } },
{ "type": "Feature", "properties": { "FID": 40, "NAME": "Phil Fung Studios and Cultural Center - Pinecrest", "ADDRESS": "13801 SW 109th AVE", "CITY": "Pinecrest", "ZIPCODE": 33156, "PHONE": "3052994664", "WEBURL": "http:\/\/www.philfung.com", "LAT": 25.64055, "LON": -80.37065, "POINT_X": 863505.00002666202, "POINT_Y": 475540.87507574301 }, "geometry": { "type": "Point", "coordinates": [ -80.370651061999979, 25.640550322000024 ] } },
{ "type": "Feature", "properties": { "FID": 41, "NAME": "UM Ring Theatre", "ADDRESS": "1312 Miller DR", "CITY": "Coral Gables", "ZIPCODE": 33124, "PHONE": "3052843355", "WEBURL": "http:\/\/www.as.miami.edu\/ringtheatre\/", "LAT": 25.71967, "LON": -80.28002, "POINT_X": 893206.3779597471, "POINT_Y": 504452.308722571 }, "geometry": { "type": "Point", "coordinates": [ -80.280023348999975, 25.719677287000025 ] } },
{ "type": "Feature", "properties": { "FID": 42, "NAME": "ASC Area Stage Company", "ADDRESS": "1560 S Dixie Hwy Suite 103", "CITY": "Coral Gables", "ZIPCODE": 33146, "PHONE": "3056662078", "WEBURL": "http:\/\/www.areastagecompany.com", "LAT": 25.70813, "LON": -80.28414, "POINT_X": 891872.25497182808, "POINT_Y": 500248.558599904 }, "geometry": { "type": "Point", "coordinates": [ -80.284144549999951, 25.708131632000061 ] } },
{ "type": "Feature", "properties": { "FID": 43, "NAME": "Robert Russell Theater at the Alper JCC", "ADDRESS": "11155 SW 112th AVE", "CITY": "Miami", "ZIPCODE": 33176, "PHONE": "3052719000", "WEBURL": "http:\/\/www.alperjcc.org\/artsculture\/literary-performing-arts\/", "LAT": 25.66562, "LON": -80.37364, "POINT_X": 862480.75010666309, "POINT_Y": 484650.21906174003 }, "geometry": { "type": "Point", "coordinates": [ -80.373629045999962, 25.665626541000051 ] } },
{ "type": "Feature", "properties": { "FID": 44, "NAME": "Seminole Theatre", "ADDRESS": "18 N Krome Ave", "CITY": "Homestead", "ZIPCODE": 33030, "PHONE": "7866502073", "WEBURL": "http:\/\/www.seminoletheatre.org\/", "LAT": 25.47028, "LON": -80.47765, "POINT_X": 828497.00016091403, "POINT_Y": 413504.31246932602 }, "geometry": { "type": "Point", "coordinates": [ -80.477650548999975, 25.470280764000051 ] } },
{ "type": "Feature", "properties": { "FID": 45, "NAME": "Wertheim Performing Arts Center", "ADDRESS": "10910 SW 17th ST", "CITY": "Miami", "ZIPCODE": 33165, "PHONE": "3053480496", "WEBURL": "http:\/\/carta.fiu.edu\/wpac\/", "LAT": 25.75249, "LON": -80.37249, "POINT_X": 862703.4642281601, "POINT_Y": 516223.90689849103 }, "geometry": { "type": "Point", "coordinates": [ -80.372497494999948, 25.75249274600003 ] } },
{ "type": "Feature", "properties": { "FID": 46, "NAME": "Woman's Club of Coconut Grove", "ADDRESS": "2985 S Bayshore DR", "CITY": "Coconut Grove", "ZIPCODE": 33133, "PHONE": "3054462909", "WEBURL": "http:\/\/coconutgroveevents.com\/about.html ", "LAT": 25.72685, "LON": -80.24, "POINT_X": 906369.12558433006, "POINT_Y": 507135.00020757306 }, "geometry": { "type": "Point", "coordinates": [ -80.239998901999968, 25.726855013000034 ] } },
{ "type": "Feature", "properties": { "FID": 47, "NAME": "Miami City Ballet\/ Ophelia & Juan Js. Roca Center", "ADDRESS": "2200 Liberty AVE", "CITY": "Miami Beach", "ZIPCODE": 33139, "PHONE": "3059297000", "WEBURL": "http:\/\/www.miamicityballet.org", "LAT": 25.79821, "LON": -80.1295, "POINT_X": 942576.26872107806, "POINT_Y": 533295.24053790409 }, "geometry": { "type": "Point", "coordinates": [ -80.129502396999953, 25.798210410000024 ] } },
{ "type": "Feature", "properties": { "FID": 48, "NAME": "Bayfront Park Amphitheater", "ADDRESS": "301 Biscayne Blvd", "CITY": "Miami", "ZIPCODE": 33132, "PHONE": "3053587550", "WEBURL": "https:\/\/www.livenation.com\/venues\/15031\/bayfront-park-amphitheater", "LAT": 25.77575, "LON": -80.18619, "POINT_X": 923973.12285658007, "POINT_Y": 525013.06287657504 }, "geometry": { "type": "Point", "coordinates": [ -80.186194805999946, 25.775752167000064 ] } },
{ "type": "Feature", "properties": { "FID": 49, "NAME": "Bill Cosford Cinema", "ADDRESS": "5030 Brunson Dr Bld 227", "CITY": "Coral Gables", "ZIPCODE": 33146, "PHONE": "3052844861", "WEBURL": "http:\/\/www.cosfordcinema.com\/", "LAT": 25.72207, "LON": -80.27681, "POINT_X": 894257.19869274611, "POINT_Y": 505329.72789949202 }, "geometry": { "type": "Point", "coordinates": [ -80.276311816999964, 25.722988073000067 ] } },
{ "type": "Feature", "properties": { "FID": 50, "NAME": "Pérez Art Museum Miami", "ADDRESS": "1103 Biscayne Blvd", "CITY": "Miami", "ZIPCODE": 33132, "PHONE": "3053753000", "WEBURL": "http:\/\/www.pamm.org\/parking", "LAT": 25.78603, "LON": -80.18619, "POINT_X": 923951.6763771621, "POINT_Y": 528748.73355482402 }, "geometry": { "type": "Point", "coordinates": [ -80.186189845999934, 25.786030008000068 ] } },
{ "type": "Feature", "properties": { "FID": 51, "NAME": "Adrienne Arsht Center for the Performing Arts of Miami-Dade County -Sanford", "ADDRESS": "1300 Biscayne Blvd", "CITY": "Miami", "ZIPCODE": 33132, "PHONE": "7864682000", "WEBURL": "http:\/\/www.arshtcenter.org", "LAT": 25.78762, "LON": -80.18987, "POINT_X": 922736.25033032906, "POINT_Y": 529321.49815732101 }, "geometry": { "type": "Point", "coordinates": [ -80.189872589999936, 25.787626398000043 ] } },
{ "type": "Feature", "properties": { "FID": 52, "NAME": "Art Deco Welcome Center", "ADDRESS": "1001 Ocean Drive", "CITY": "Miami Beach", "ZIPCODE": 33139, "PHONE": "3056722014", "WEBURL": "http:\/\/www.mdpl.org\/welcome-center\/visitors-center\/", "LAT": 25.78039, "LON": -80.13037, "POINT_X": 942332.0552987461, "POINT_Y": 526817.199688241 }, "geometry": { "type": "Point", "coordinates": [ -80.130374591999953, 25.780392916000039 ] } },
{ "type": "Feature", "properties": { "FID": 53, "NAME": "UM Maurice Gusman Concert Hall", "ADDRESS": "1314 Miller Drive", "CITY": "Coral Gables", "ZIPCODE": 33146, "PHONE": "3052842438", "WEBURL": "http:\/\/www.miami.edu\/frost\/index.php\/frost\/facilities\/Concert_Halls\/gusman_concert_hall\/", "LAT": 25.71964, "LON": -80.27945, "POINT_X": 893395.9491029121, "POINT_Y": 504439.78840640903 }, "geometry": { "type": "Point", "coordinates": [ -80.279447793999964, 25.719639995000023 ] } },
{ "type": "Feature", "properties": { "FID": 54, "NAME": "Hialeah High School Auditorium", "ADDRESS": "251 E 47th St", "CITY": "Hialeah", "ZIPCODE": 33013, "PHONE": "3058221500", "WEBURL": "http:\/\/www.hialeahhigh.org", "LAT": 25.86554, "LON": -80.27709, "POINT_X": 893881.51013966301, "POINT_Y": 557476.55306757207 }, "geometry": { "type": "Point", "coordinates": [ -80.277088676999938, 25.865548912000065 ] } },
{ "type": "Feature", "properties": { "FID": 55, "NAME": "Homestead Sports Complex", "ADDRESS": "350 SE 6th Avenue", "CITY": "Homestead", "ZIPCODE": 33030, "PHONE": "3052244570", "WEBURL": "http:\/\/www.cityofhomestead.com", "LAT": 25.46526, "LON": -80.47004, "POINT_X": 831013.12865882705, "POINT_Y": 411689.49916982703 }, "geometry": { "type": "Point", "coordinates": [ -80.470046018999938, 25.465260052000076 ] } },
{ "type": "Feature", "properties": { "FID": 56, "NAME": "FUI - William and Joan Lehman Theater at Miami Dade North Campus", "ADDRESS": "11380 NW 27th Ave", "CITY": "Miami", "ZIPCODE": 33167, "PHONE": "3052371091", "WEBURL": "http:\/\/www.mdc.edu\/main\/facilities_rental\/facilities_available\/theaters.aspx", "LAT": 25.87793, "LON": -80.24566, "POINT_X": 904190.90914024401, "POINT_Y": 562038.29984957003 }, "geometry": { "type": "Point", "coordinates": [ -80.245659200999967, 25.877939574000038 ] } },
{ "type": "Feature", "properties": { "FID": 57, "NAME": "WDNA Jazz Gallery", "ADDRESS": "2921 Coral Way", "CITY": "Miami", "ZIPCODE": 33145, "PHONE": "3056628889", "WEBURL": "http:\/\/www.wdna.org", "LAT": 25.7505, "LON": -80.24083, "POINT_X": 906044.29126024607, "POINT_Y": 515728.925933071 }, "geometry": { "type": "Point", "coordinates": [ -80.240835330999971, 25.750503981000065 ] } },
{ "type": "Feature", "properties": { "FID": 58, "NAME": "Wolfson Auditorium", "ADDRESS": "300 NE 2nd Ave", "CITY": "Miami", "ZIPCODE": 33132, "PHONE": "3052373788", "WEBURL": "http:\/\/www.mdc.edu\/wolfson-facilities\/facilities\/default.aspx", "LAT": 25.77764, "LON": -80.19122, "POINT_X": 922312.81023233011, "POINT_Y": 525690.05922599102 }, "geometry": { "type": "Point", "coordinates": [ -80.191227121999987, 25.777642831000037 ] } },
{ "type": "Feature", "properties": { "FID": 59, "NAME": "The Fillmore at The Jackie Gleason Theatre", "ADDRESS": "1700 Washington Avenue", "CITY": "Miami Beach", "ZIPCODE": 33139, "PHONE": "3056737300", "WEBURL": "http:\/\/www.fillmoremb.com\/", "LAT": 25.79193, "LON": -80.13215, "POINT_X": 941720.36820191203, "POINT_Y": 531010.06991140498 }, "geometry": { "type": "Point", "coordinates": [ -80.132149323999954, 25.791939157000058 ] } },
{ "type": "Feature", "properties": { "FID": 60, "NAME": "New World Symphony, America’s Orchestral Academy (NWS)", "ADDRESS": "500 17th Street  ", "CITY": "Miami Beach", "ZIPCODE": 33139, "PHONE": "3056733330", "WEBURL": "http:\/\/www.newworldcenter.com", "LAT": 25.79116, "LON": -80.13329, "POINT_X": 941346.50215174607, "POINT_Y": 530727.18399424106 }, "geometry": { "type": "Point", "coordinates": [ -80.133291130999964, 25.791167675000054 ] } },
{ "type": "Feature", "properties": { "FID": 61, "NAME": "Arts at St. Johns", "ADDRESS": "4760 Pine Tree Drive", "CITY": "Miami Beach", "ZIPCODE": 33140, "PHONE": "3056132325", "WEBURL": "http:\/\/www.artsatstjohns.com", "LAT": 25.82316, "LON": -80.12619, "POINT_X": 943608.24730016303, "POINT_Y": 542373.74895566003 }, "geometry": { "type": "Point", "coordinates": [ -80.126182916999937, 25.82316766100007 ] } },
{ "type": "Feature", "properties": { "FID": 62, "NAME": "South Dade Senior High Auditorium", "ADDRESS": "28401 SW 167th Ave", "CITY": "Homestead", "ZIPCODE": 33033, "PHONE": "3052474244", "WEBURL": "http:\/\/sdshs.net\/apps\/facilities\/", "LAT": 25.50232, "LON": -80.45922, "POINT_X": 834530.6258889141, "POINT_Y": 425174.15888024104 }, "geometry": { "type": "Point", "coordinates": [ -80.459218935999957, 25.502323415000035 ] } },
{ "type": "Feature", "properties": { "FID": 63, "NAME": "Actors' Playhouse - The Miracle Theatre", "ADDRESS": "280 Miracle Mile", "CITY": "Coral Gables", "ZIPCODE": 33134, "PHONE": "3054449293", "WEBURL": "http:\/\/www.actorsplayhouse.org", "LAT": 25.74902, "LON": -80.26041, "POINT_X": 899602.87468116404, "POINT_Y": 515156.34374490404 }, "geometry": { "type": "Point", "coordinates": [ -80.260413810999978, 25.749029380000025 ] } },
{ "type": "Feature", "properties": { "FID": 64, "NAME": "Fantasy Theatre Factory at the Sandrell Rivers Theater", "ADDRESS": "6101 NW 7th Ave #79", "CITY": "Miami", "ZIPCODE": 33127, "PHONE": "3052848800", "WEBURL": "https:\/\/www.ftfshows.com\/contact", "LAT": null, "LON": null, "POINT_X": null, "POINT_Y": null }, "geometry": { "type": "Point", "coordinates": [ -80.208257533999983, 25.831511448000072 ] } },
{ "type": "Feature", "properties": { "FID": 65, "NAME": "American Museum of the Cuban Diaspora", "ADDRESS": "1200 Coral Way", "CITY": "Miami", "ZIPCODE": 33145, "PHONE": "3055295400", "WEBURL": "http:\/\/thecuban.org\/", "LAT": null, "LON": null, "POINT_X": null, "POINT_Y": null }, "geometry": { "type": "Point", "coordinates": [ -80.214337312999987, 25.750819278000051 ] } },
{ "type": "Feature", "properties": { "FID": 66, "NAME": "Lyric Theater", "ADDRESS": "819 NW 2nd Ave", "CITY": "Miami", "ZIPCODE": 33136, "PHONE": "7867084610", "WEBURL": "https:\/\/www.bahlt.org\/", "LAT": null, "LON": null, "POINT_X": null, "POINT_Y": null }, "geometry": { "type": "Point", "coordinates": [ -80.197766910999974, 25.782089524000071 ] } },
{ "type": "Feature", "properties": { "FID": 67, "NAME": "Milander Milander Auditorium Arts & Entertainment", "ADDRESS": "4800 Palm Ave", "CITY": "Hialeah", "ZIPCODE": 33012, "PHONE": "3058222521", "WEBURL": "http:\/\/milandercenter.com\/index.php\/en\/", "LAT": null, "LON": null, "POINT_X": null, "POINT_Y": null }, "geometry": { "type": "Point", "coordinates": [ -80.283809178999945, 25.865555843000038 ] } },
{ "type": "Feature", "properties": { "FID": 68, "NAME": "Pelican Theatre at Barry University", "ADDRESS": "11300 NE 2nd AVE", "CITY": "Miami Shores", "ZIPCODE": 33161, "PHONE": "3058993100", "WEBURL": "http:\/\/www.barry.edu\/about\/locations\/", "LAT": 25.87908, "LON": -80.19617, "POINT_X": 920463.81228991202, "POINT_Y": 562550.18760532106 }, "geometry": { "type": "Point", "coordinates": [ -80.196303062999959, 25.87981432600003 ] } },
{ "type": "Feature", "properties": { "FID": 69, "NAME": "The Andy Gato Gallery at Barry University", "ADDRESS": "11300 NE 2nd AVE", "CITY": "Miami Shores", "ZIPCODE": 33161, "PHONE": "3058993100", "WEBURL": "https:\/\/www.barry.edu\/fine-arts\/gallery\/", "LAT": 25.87908, "LON": -80.19617, "POINT_X": 920463.81228991202, "POINT_Y": 562550.18760532106 }, "geometry": { "type": "Point", "coordinates": [ -80.196385196999984, 25.878405723000071 ] } },
{ "type": "Feature", "properties": { "FID": 70, "NAME": "Pelican Playhouse - Rebeca Sosa Theater", "ADDRESS": "1401 Westward Dr", "CITY": "Miami Springs", "ZIPCODE": 33166, "PHONE": "3058846804", "WEBURL": "http:\/\/www.pelicanplayhouse.org\/location\/directions\/", "LAT": null, "LON": null, "POINT_X": null, "POINT_Y": null }, "geometry": { "type": "Point", "coordinates": [ -80.299037152999972, 25.821143779000067 ] } }
]
}
